StationNumber,StartDate, EndDate,Latitude,Longitude,Elevation,StationName                             ,RegioName             ,EOR
13600,20080101,20241029,47.6675,16.4969,336,Sopron Görbehalom                       ,Győr-Moson-Sopron     ,EOR
13710,20010101,20181231,47.7147,16.6658,116,Fertőrákos                              ,Győr-Moson-Sopron     ,EOR
13710,20180901,20241029,47.7147,16.6658,116,Fertőrákos                              ,Győr-Moson-Sopron     ,EOR
13712,20060101,20241029,47.6842,16.5519,245,Sopron Kertváros                        ,Győr-Moson-Sopron     ,EOR
13713,20180401,20181231,47.6783,16.6025,234,Sopron Meteorológia                     ,Győr-Moson-Sopron     ,EOR
13713,20180901,20241029,47.6783,16.6025,234,Sopron Meteorológia                     ,Győr-Moson-Sopron     ,EOR
13801,19820901,20181231,47.6956,16.8489,114,Sarród Fertőújlak                       ,Győr-Moson-Sopron     ,EOR
13801,20180901,20211031,47.6956,16.8489,114,Sarród Fertőújlak                       ,Győr-Moson-Sopron     ,EOR
13801,20211101,20241029,47.6956,16.8489,114,Sarród Fertőújlak                       ,Győr-Moson-Sopron     ,EOR
13802,19500617,19510131,47.6883,17.0103,116,Kapuvár Rókató                          ,Győr-Moson-Sopron     ,EOR
13802,19510601,19510630,47.6883,17.0103,116,Kapuvár Rókató                          ,Győr-Moson-Sopron     ,EOR
13802,19540101,20241029,47.6883,17.0103,116,Kapuvár Rókató                          ,Győr-Moson-Sopron     ,EOR
14201,19310101,19840131,47.6533,16.4878,421,Sopron Brennbergbánya                   ,Győr-Moson-Sopron     ,EOR
14201,20120701,20181231,47.6533,16.4878,421,Sopron Brennbergbánya                   ,Győr-Moson-Sopron     ,EOR
14201,20180901,20241029,47.6533,16.4878,421,Sopron Brennbergbánya                   ,Győr-Moson-Sopron     ,EOR
14304,20061101,20241029,47.6508,16.5225,510,Sopron Muck-kilátó                      ,Győr-Moson-Sopron     ,EOR
14305,20091101,20241029,47.6089,16.7069,156,Nagycenk                                ,Győr-Moson-Sopron     ,EOR
14306,20130101,20241029,47.6375,16.5986,207,Harka                                   ,Győr-Moson-Sopron     ,EOR
14307,20140701,20241029,47.6411,16.6611,119,Sopron Balf                             ,Győr-Moson-Sopron     ,EOR
14403,19050701,19520214,47.6144,16.86,126,Fertőd Eszterháza                       ,Győr-Moson-Sopron     ,EOR
14403,19670801,20241029,47.6144,16.86,126,Fertőd Eszterháza                       ,Győr-Moson-Sopron     ,EOR
14409,19560101,20241029,47.4978,16.7844,187,Lövő                                    ,Győr-Moson-Sopron     ,EOR
14420,20020401,20181231,47.5147,16.9247,146.5,Csapod                                  ,Győr-Moson-Sopron     ,EOR
14420,20180901,20241029,47.5147,16.9247,146.5,Csapod                                  ,Győr-Moson-Sopron     ,EOR
14421,20050201,20181231,47.5953,16.8625,128,Fertőszentmiklós                        ,Győr-Moson-Sopron     ,EOR
14421,20180901,20241029,47.5953,16.8625,128,Fertőszentmiklós                        ,Győr-Moson-Sopron     ,EOR
14704,20110301,20181231,47.3856,16.5472,270,Kőszeg                                  ,Vas                   ,EOR
14704,20180901,20241029,47.3856,16.5472,270,Kőszeg                                  ,Vas                   ,EOR
14705,20130101,20181231,47.4242,16.6514,214,Peresznye                               ,Vas                   ,EOR
14705,20180901,20241029,47.4242,16.6514,214,Peresznye                               ,Vas                   ,EOR
14706,19461001,19490831,47.4833,16.7353,197,Sopronhorpács                           ,Győr-Moson-Sopron     ,EOR
14706,20130101,20181231,47.4833,16.7353,197,Sopronhorpács                           ,Győr-Moson-Sopron     ,EOR
14706,20180901,20241029,47.4833,16.7353,197,Sopronhorpács                           ,Győr-Moson-Sopron     ,EOR
14801,19510401,20181231,47.4058,16.6986,172,Csepreg                                 ,Vas                   ,EOR
14801,20180901,20241029,47.4058,16.6986,172,Csepreg                                 ,Vas                   ,EOR
15311,20030501,20181231,47.2025,16.6617,198.3,Szombathely Gyöngyöshermán              ,Vas                   ,EOR
15311,20180901,20241029,47.2025,16.6617,198.3,Szombathely Gyöngyöshermán              ,Vas                   ,EOR
15312,20140701,20181231,47.2242,16.7122,192,Vép                                     ,Vas                   ,EOR
15312,20180901,20241029,47.2242,16.7122,192,Vép                                     ,Vas                   ,EOR
15313,20160101,20181231,47.3022,16.5906,236,Gencsapáti                              ,Vas                   ,EOR
15313,20180901,20241029,47.3022,16.5906,236,Gencsapáti                              ,Vas                   ,EOR
15314,20180401,20181231,47.1981,16.6483,200.1,Szombathely Meteorológia                ,Vas                   ,EOR
15314,20180901,20241029,47.1981,16.6483,200.1,Szombathely Meteorológia                ,Vas                   ,EOR
15315,20190101,20241029,47.2011,16.6922,193.3,Táplánszentkereszt                      ,Vas                   ,EOR
15604,20080401,20181231,47.0386,16.4833,204,Pinkamindszent                          ,Vas                   ,EOR
15604,20180901,20241029,47.0386,16.4833,204,Pinkamindszent                          ,Vas                   ,EOR
15714,20171101,20190131,47.0889,16.4806,212,Szentpéterfa                            ,Vas                   ,EOR
15714,20181101,20241029,47.0889,16.4806,212,Szentpéterfa                            ,Vas                   ,EOR
15715,20210101,20241029,47.1475,16.5825,221,Ják                                     ,Vas                   ,EOR
15810,19980701,20241029,47.0533,16.7969,177,Vasvár Mártírok útja                    ,Vas                   ,EOR
16100,19720901,20181231,46.8778,16.165,277,Felsőszölnök                            ,Vas                   ,EOR
16100,20180901,20241029,46.8778,16.165,277,Felsőszölnök                            ,Vas                   ,EOR
16205,19710601,20181231,46.855,16.375,261,Szalafő                                 ,Vas                   ,EOR
16205,20180901,20241029,46.855,16.375,261,Szalafő                                 ,Vas                   ,EOR
16217,20130101,20181231,46.9631,16.4436,202,Gasztony                                ,Vas                   ,EOR
16217,20180901,20241029,46.9631,16.4436,202,Gasztony                                ,Vas                   ,EOR
16219,20180401,20181231,46.9425,16.4208,209.8,Rábagyarmat                             ,Vas                   ,EOR
16219,20180901,20241029,46.9425,16.4208,209.8,Rábagyarmat                             ,Vas                   ,EOR
16302,19820101,19860131,46.9064,16.7031,225,Hagyárosbörönd                          ,Zala                  ,EOR
16302,19860401,20181231,46.9064,16.7031,225,Hagyárosbörönd                          ,Zala                  ,EOR
16302,20180901,20241029,46.9064,16.7031,225,Hagyárosbörönd                          ,Zala                  ,EOR
16306,20001201,20190131,46.8417,16.5861,194,Zalalövő                                ,Zala                  ,EOR
16306,20180901,20241029,46.8417,16.5861,194,Zalalövő                                ,Zala                  ,EOR
16604,20060801,20181231,46.7653,16.4844,197,Kerkafalva                              ,Zala                  ,EOR
16604,20180901,20241029,46.7653,16.4844,197,Kerkafalva                              ,Zala                  ,EOR
16703,20160101,20241029,46.7178,16.5156,183,Csesztreg                               ,Zala                  ,EOR
16810,20140401,20190131,46.6969,16.7525,201,Zalatárnok                              ,Zala                  ,EOR
16810,20180901,20241029,46.6969,16.7525,201,Zalatárnok                              ,Zala                  ,EOR
17300,20000401,20190131,46.6258,16.5467,164,Lenti                                   ,Zala                  ,EOR
17300,20180901,20241029,46.6258,16.5467,164,Lenti                                   ,Zala                  ,EOR
17301,19811001,20241029,46.5047,16.62,165,Csörnyeföld                             ,Zala                  ,EOR
17314,20161201,20181231,46.5903,16.6439,172.9,Páka                                    ,Zala                  ,EOR
17314,20180901,20241029,46.5903,16.6439,172.9,Páka                                    ,Zala                  ,EOR
17315,20170201,20241029,46.6506,16.7369,171,Gutorfölde                              ,Zala                  ,EOR
17315,20180901,20190630,46.6506,16.7369,171,Gutorfölde                              ,Zala                  ,EOR
17418,20140501,20241029,46.6786,16.9864,158,Felsőrajk                               ,Zala                  ,EOR
17815,20190501,20241029,46.4561,16.9706,138.8,Nagykanizsa Meteorológia                ,Zala                  ,EOR
17816,20210101,20241029,46.4511,16.7967,165,Becsehely                               ,Zala                  ,EOR
22502,19840901,19840930,47.9975,17.1969,129,Rajka                                   ,Győr-Moson-Sopron     ,EOR
22502,20000101,20241029,47.9975,17.1969,129,Rajka                                   ,Győr-Moson-Sopron     ,EOR
23215,20021201,20190131,47.8328,17.4583,116,Hédervár                                ,Győr-Moson-Sopron     ,EOR
23215,20180901,20241029,47.8328,17.4583,116,Hédervár                                ,Győr-Moson-Sopron     ,EOR
23216,20031001,20191130,47.9331,17.2758,123,Feketeerdő                              ,Győr-Moson-Sopron     ,EOR
23216,20191201,20241029,47.9331,17.2758,123,Feketeerdő                              ,Győr-Moson-Sopron     ,EOR
23217,20180401,20191231,47.8897,17.2675,119.8,Mosonmagyaróvár Kuti-telep              ,Győr-Moson-Sopron     ,EOR
23217,20200101,20241029,47.8897,17.2675,119.8,Mosonmagyaróvár Kuti-telep              ,Győr-Moson-Sopron     ,EOR
23218,20220301,20241029,47.97,17.2828,125,Dunakiliti                              ,Győr-Moson-Sopron     ,EOR
23500,19450601,20241029,47.7831,17.1347,119,Jánossomorja                            ,Győr-Moson-Sopron     ,EOR
23505,20100401,20190131,47.6858,17.2456,116,Bősárkány                               ,Győr-Moson-Sopron     ,EOR
23505,20180901,20241029,47.6858,17.2456,116,Bősárkány                               ,Győr-Moson-Sopron     ,EOR
23600,19610101,20190131,47.6742,17.3203,113,Markotabödöge                           ,Győr-Moson-Sopron     ,EOR
23600,20181101,20241029,47.6742,17.3203,113,Markotabödöge                           ,Győr-Moson-Sopron     ,EOR
23603,20010201,20230331,47.7322,17.4992,116,Öttevény                                ,Győr-Moson-Sopron     ,EOR
23603,20230401,20241029,47.7322,17.4992,116,Öttevény                                ,Győr-Moson-Sopron     ,EOR
23713,20170901,20181231,47.6875,17.6344,119.9,Győr Belváros                           ,Győr-Moson-Sopron     ,EOR
23713,20180901,20241029,47.6875,17.6344,119.9,Győr Belváros                           ,Győr-Moson-Sopron     ,EOR
23715,20240101,20240229,47.71,17.6747,116,Győr Likócs Pesti út                    ,Győr-Moson-Sopron     ,EOR
23715,20240301,20241029,47.71,17.6747,116,Győr Likócs Pesti út                    ,Győr-Moson-Sopron     ,EOR
24111,19860301,20181231,47.6036,17.2494,116.2,Csorna                                  ,Győr-Moson-Sopron     ,EOR
24111,20180901,20240831,47.6036,17.2494,116.2,Csorna                                  ,Győr-Moson-Sopron     ,EOR
24117,20110701,20181231,47.5181,17.0061,131,Himod                                   ,Győr-Moson-Sopron     ,EOR
24117,20180901,20241029,47.5181,17.0061,131,Himod                                   ,Győr-Moson-Sopron     ,EOR
24121,20211101,20241029,47.5864,17.1247,119,Szárföld                                ,Győr-Moson-Sopron     ,EOR
24122,20240901,20241029,47.6039,17.2494,117,Csorna                                  ,Győr-Moson-Sopron     ,EOR
24308,20130101,20181231,47.5906,17.5794,120,Győrszemere Nagyszentpál                ,Győr-Moson-Sopron     ,EOR
24308,20180901,20241029,47.5906,17.5794,120,Győrszemere Nagyszentpál                ,Győr-Moson-Sopron     ,EOR
24419,20010101,20241029,47.5206,17.75,149,Ravazd                                  ,Győr-Moson-Sopron     ,EOR
24420,20010701,20241029,47.5092,17.9219,184,Bársonyos                               ,Komárom-Esztergom     ,EOR
24505,19430701,20181231,47.4011,17.0142,142,Nick Rákóczi utca                       ,Vas                   ,EOR
24505,20180901,20241029,47.4011,17.0142,142,Nick Rákóczi utca                       ,Vas                   ,EOR
24506,20091101,20241029,47.4636,17.0981,131,Beled                                   ,Győr-Moson-Sopron     ,EOR
24513,20130101,20190131,47.4769,17.1722,127.7,Páli                                    ,Győr-Moson-Sopron     ,EOR
24513,20180901,20190831,47.4769,17.1722,127.7,Páli                                    ,Győr-Moson-Sopron     ,EOR
24513,20190901,20241029,47.4769,17.1722,127.7,Páli                                    ,Győr-Moson-Sopron     ,EOR
24602,19970501,20181231,47.4319,17.3697,122,Marcaltő                                ,Veszprém              ,EOR
24602,20180901,20241029,47.4319,17.3697,122,Marcaltő                                ,Veszprém              ,EOR
24610,20231101,20241029,47.3564,17.4939,144,Pápa Irányítótorony                     ,Veszprém              ,EOR
24710,20171001,20181231,47.4289,17.7472,153,Gic                                     ,Veszprém              ,EOR
24710,20180901,20241029,47.4289,17.7472,153,Gic                                     ,Veszprém              ,EOR
24712,20220801,20241029,47.4406,17.6242,149,Lovászpatona                            ,Veszprém              ,EOR
24806,19780101,20181231,47.3836,17.9719,262,Csatka                                  ,Komárom-Esztergom     ,EOR
24806,20190101,20241029,47.3836,17.9719,262,Csatka                                  ,Komárom-Esztergom     ,EOR
24818,20160701,20190131,47.3636,17.8925,232,Bakonyszentkirály                       ,Veszprém              ,EOR
24818,20180901,20241029,47.3636,17.8925,232,Bakonyszentkirály                       ,Veszprém              ,EOR
25100,19990101,20181231,47.1606,17.0397,169,Káld                                    ,Vas                   ,EOR
25100,20180901,20241029,47.1606,17.0397,169,Káld                                    ,Vas                   ,EOR
25107,20090101,20241029,47.2547,17.1622,135,Celldömölk                              ,Vas                   ,EOR
25200,19960701,20181231,47.1614,17.2717,138,Kerta                                   ,Veszprém              ,EOR
25200,20180901,20241029,47.1614,17.2717,138,Kerta                                   ,Veszprém              ,EOR
25201,19650901,20190731,47.2403,17.3303,142,Dabrony                                 ,Veszprém              ,EOR
25201,20190801,20241029,47.2403,17.3303,142,Dabrony                                 ,Veszprém              ,EOR
25206,20181201,20181231,47.3258,17.4769,143,Pápa Belváros                           ,Veszprém              ,EOR
25206,20181201,20241029,47.3258,17.4769,143,Pápa Belváros                           ,Veszprém              ,EOR
25208,19871101,20181231,47.2483,17.4667,183,Kup                                     ,Veszprém              ,EOR
25208,20180901,20241029,47.2483,17.4667,183,Kup                                     ,Veszprém              ,EOR
25316,20120101,20181231,47.3314,17.6833,220,Bakonykoppány                           ,Veszprém              ,EOR
25316,20180901,20241029,47.3314,17.6833,220,Bakonykoppány                           ,Veszprém              ,EOR
25319,20240201,20241029,47.2561,17.7269,280,Bakonybél                               ,Veszprém              ,EOR
25400,19500701,20190131,47.2514,17.7614,388,Bakonybél Somhegypuszta                 ,Veszprém              ,EOR
25400,20180901,20241029,47.2514,17.7614,388,Bakonybél Somhegypuszta                 ,Veszprém              ,EOR
25416,20171001,20190131,47.1883,17.8164,504,Hárskút                                 ,Veszprém              ,EOR
25416,20180901,20241029,47.1883,17.8164,504,Hárskút                                 ,Veszprém              ,EOR
25417,20171001,20181231,47.2547,17.8697,413,Zirc                                    ,Veszprém              ,EOR
25417,20180901,20241029,47.2547,17.8697,413,Zirc                                    ,Veszprém              ,EOR
25616,20230801,20241029,47.0067,17.4503,209,Nyirád                                  ,Veszprém              ,EOR
25714,20020101,20181231,47.0858,17.6242,367,Úrkút                                   ,Veszprém              ,EOR
25714,20180901,20241029,47.0858,17.6242,367,Úrkút                                   ,Veszprém              ,EOR
25717,20141001,20190131,47.1439,17.6483,294,Városlőd                                ,Veszprém              ,EOR
25717,20180901,20241029,47.1439,17.6483,294,Városlőd                                ,Veszprém              ,EOR
25718,20230801,20241029,47.1014,17.5406,226,Ajka                                    ,Veszprém              ,EOR
25801,19811001,20100228,47.0031,17.825,325,Hidegkút                                ,Veszprém              ,EOR
25801,20100401,20181231,47.0031,17.825,325,Hidegkút                                ,Veszprém              ,EOR
25801,20180901,20241029,47.0031,17.825,325,Hidegkút                                ,Veszprém              ,EOR
25821,20130101,20181231,47.1019,17.9311,255,Veszprém                                ,Veszprém              ,EOR
25821,20190101,20241029,47.1019,17.9311,255,Veszprém                                ,Veszprém              ,EOR
26100,19810401,20241029,46.8411,17.0925,125,Kehidakustány                           ,Zala                  ,EOR
26119,20150601,20181231,46.9606,17.1725,146,Óhíd                                    ,Zala                  ,EOR
26119,20180901,20241029,46.9606,17.1725,146,Óhíd                                    ,Zala                  ,EOR
26208,20150101,20181231,46.8881,17.435,128,Tapolca                                 ,Veszprém              ,EOR
26208,20180901,20241029,46.8881,17.435,128,Tapolca                                 ,Veszprém              ,EOR
26209,19770201,20241029,46.8342,17.4342,129,Hegymagas                               ,Veszprém              ,EOR
26213,19980101,20241029,46.825,17.3664,162,Nemesvita                               ,Veszprém              ,EOR
26329,20180201,20181231,46.8367,17.5497,141,Salföld                                 ,Veszprém              ,EOR
26329,20180901,20241029,46.8367,17.5497,141,Salföld                                 ,Veszprém              ,EOR
26330,20240429,20241029,46.9783,17.7006,270,Nagyvázsony                             ,Veszprém              ,EOR
26421,20240201,20241029,46.9419,17.7589,275,Vászoly                                 ,Veszprém              ,EOR
26602,19900701,20181231,46.6744,17.3869,110,Balatonújlak                            ,Somogy                ,EOR
26602,20180901,20241029,46.6744,17.3869,110,Balatonújlak                            ,Somogy                ,EOR
26605,19720801,19920531,46.7886,17.4967,130,Badacsony Badacsonytomaj                ,Veszprém              ,EOR
26605,19970101,20181231,46.7886,17.4967,130,Badacsony Badacsonytomaj                ,Veszprém              ,EOR
26605,20180901,20241029,46.7886,17.4967,130,Badacsony Badacsonytomaj                ,Veszprém              ,EOR
26611,20050401,20190131,46.7881,17.2783,145,Gyenesdiás                              ,Zala                  ,EOR
26611,20180901,20241029,46.7881,17.2783,145,Gyenesdiás                              ,Zala                  ,EOR
26706,19750601,20241029,46.7767,17.6475,106,Balatonboglár                           ,Somogy                ,EOR
26719,20080501,20241029,46.7819,17.7,114,Balatonlelle                            ,Somogy                ,EOR
26826,20020101,20190630,46.7825,17.9486,209,Bálványos                               ,Somogy                ,EOR
26826,20190701,20230331,46.7825,17.9486,209,Bálványos                               ,Somogy                ,EOR
26826,20230401,20241029,46.7825,17.9486,209,Bálványos                               ,Somogy                ,EOR
26829,20180101,20181231,46.7828,17.8442,116,Szólád                                  ,Somogy                ,EOR
26829,20180901,20241029,46.7828,17.8442,116,Szólád                                  ,Somogy                ,EOR
27106,20060401,20181231,46.5489,17.1844,111,Zalakomár                               ,Zala                  ,EOR
27106,20180901,20241029,46.5489,17.1844,111,Zalakomár                               ,Zala                  ,EOR
27108,20201001,20241029,46.6328,17.175,105,Balatonmagyaród gátőrház                ,Zala                  ,EOR
27225,20100101,20241029,46.5675,17.4103,131,Marcali                                 ,Somogy                ,EOR
27310,20191101,20241029,46.5822,17.645,156,Somogyvár                               ,Somogy                ,EOR
27416,20081101,20181231,46.5053,17.8142,169,Mernye                                  ,Somogy                ,EOR
27416,20181101,20210531,46.5053,17.8142,169,Mernye                                  ,Somogy                ,EOR
27416,20210601,20210930,46.5053,17.8142,169,Mernye                                  ,Somogy                ,EOR
27416,20211001,20241029,46.5053,17.8142,169,Mernye                                  ,Somogy                ,EOR
27600,19770701,20190131,46.4128,17.2894,161,Vése                                    ,Somogy                ,EOR
27600,20180901,20241029,46.4128,17.2894,161,Vése                                    ,Somogy                ,EOR
27607,20210101,20241029,46.3361,17.4597,158,Kutas                                   ,Somogy                ,EOR
27617,20140301,20181231,46.4911,17.425,140,Mesztegnyő                              ,Somogy                ,EOR
27617,20180901,20241029,46.4911,17.425,140,Mesztegnyő                              ,Somogy                ,EOR
27706,19920101,20211031,46.3903,17.5108,155.3,Nagybajom                               ,Somogy                ,EOR
27706,20211001,20241029,46.3903,17.5108,155.3,Nagybajom                               ,Somogy                ,EOR
27707,20200101,20241029,46.3611,17.6633,155,Kaposfő                                 ,Somogy                ,EOR
27814,19930401,20241029,46.4717,17.8989,163,Magyaratád                              ,Somogy                ,EOR
28204,19550501,20241029,46.2308,17.3633,128,Nagyatád Tallián utca                   ,Somogy                ,EOR
28308,19920201,20241029,46.3006,17.5572,168,Csököly                                 ,Somogy                ,EOR
28405,20120901,20241029,46.2369,17.85,172,Bőszénfa                                ,Somogy                ,EOR
28501,19810801,20241029,46.0953,17.2333,123,Vízvár                                  ,Somogy                ,EOR
28703,19770401,20181231,46.1125,17.7142,134,Somogyhatvan                            ,Baranya               ,EOR
28703,20180901,20210731,46.1125,17.7142,134,Somogyhatvan                            ,Baranya               ,EOR
28703,20210801,20241029,46.1125,17.7142,134,Somogyhatvan                            ,Baranya               ,EOR
28818,20000701,20220228,46.145,17.8292,140.7,Szentlászló                             ,Baranya               ,EOR
28818,20220301,20241029,46.145,17.8292,140.7,Szentlászló                             ,Baranya               ,EOR
29206,20230501,20241029,45.9597,17.4503,112,Barcs Gyógyfürdő                        ,Somogy                ,EOR
32803,19970201,20241029,48.0125,18.8911,209,Kemence                                 ,Pest                  ,EOR
33403,19990101,20241029,47.9767,18.7919,126,Vámosmikola                             ,Pest                  ,EOR
33412,19800301,20190228,47.8636,18.8775,231,Márianosztra                            ,Pest                  ,EOR
33412,20190301,20241029,47.8636,18.8775,231,Márianosztra                            ,Pest                  ,EOR
33435,20030601,20190131,47.8322,18.8547,118,Szob                                    ,Pest                  ,EOR
33435,20180901,20241029,47.8322,18.8547,118,Szob                                    ,Pest                  ,EOR
33436,20080401,20220331,47.8942,18.9778,258,Szokolya Királyrét                      ,Pest                  ,EOR
33436,20190201,20190731,47.8942,18.9778,258,Szokolya Királyrét                      ,Pest                  ,EOR
33436,20230501,20241029,47.8942,18.9778,258,Szokolya Királyrét                      ,Pest                  ,EOR
33437,20191030,20241029,47.9225,18.7686,110,Ipolytölgyes                            ,Pest                  ,EOR
33438,20241001,20241029,47.8981,18.9697,280,Szokolya Királyrét Alsótax              ,Pest                  ,EOR
33510,20190501,20241029,47.7347,18.1869,110,Komárom Szőny                           ,Komárom-Esztergom     ,EOR
33703,19801101,20241029,47.7214,18.5578,186,Bajót                                   ,Komárom-Esztergom     ,EOR
33703,20180901,20191130,47.7214,18.5578,186,Bajót                                   ,Komárom-Esztergom     ,EOR
33705,19660801,20131231,47.6606,18.4411,321,Tardos                                  ,Komárom-Esztergom     ,EOR
33705,20140401,20181231,47.6606,18.4411,321,Tardos                                  ,Komárom-Esztergom     ,EOR
33705,20180901,20241029,47.6606,18.4411,321,Tardos                                  ,Komárom-Esztergom     ,EOR
33714,19700301,20241029,47.7781,18.7556,132,Esztergom                               ,Komárom-Esztergom     ,EOR
33833,20200701,20241029,47.6861,18.8983,341,Pilisszentkereszt                       ,Pest                  ,EOR
34116,20020101,20241029,47.6347,18.0572,128,Nagyigmánd                              ,Komárom-Esztergom     ,EOR
34117,20030401,20181231,47.515,18.0042,166,Ászár                                   ,Komárom-Esztergom     ,EOR
34117,20181101,20200531,47.515,18.0042,166,Ászár                                   ,Komárom-Esztergom     ,EOR
34117,20200601,20241029,47.515,18.0042,166,Ászár                                   ,Komárom-Esztergom     ,EOR
34202,19740101,20241029,47.5761,18.3142,184,Környe Tagyospuszta                     ,Komárom-Esztergom     ,EOR
34202,20181101,20190731,47.5761,18.3142,184,Környe Tagyospuszta                     ,Komárom-Esztergom     ,EOR
34235,20170301,20241029,47.5456,18.3281,152,Környe                                  ,Komárom-Esztergom     ,EOR
34301,19700101,20181231,47.6544,18.5994,208,Bajna                                   ,Komárom-Esztergom     ,EOR
34301,20180901,20241029,47.6544,18.5994,208,Bajna                                   ,Komárom-Esztergom     ,EOR
34302,19810701,20241029,47.5933,18.6481,201,Gyermely                                ,Komárom-Esztergom     ,EOR
34304,19800901,20181231,47.5478,18.7233,158,Zsámbék                                 ,Pest                  ,EOR
34304,20180901,20241029,47.5478,18.7233,158,Zsámbék                                 ,Pest                  ,EOR
34406,19631201,20241029,47.5764,18.8914,326,Nagykovácsi                             ,Pest                  ,EOR
34413,19890301,20201031,47.5617,18.9656,256,Budapest Pesthidegkút                   ,Budapest II.          ,EOR
34413,20201101,20241029,47.5617,18.9656,256,Budapest Pesthidegkút                   ,Budapest II.          ,EOR
34432,20011001,20241029,47.6347,18.8372,242,Piliscsaba Klotildliget                 ,Pest                  ,EOR
34435,20181001,20190131,47.5514,18.9489,230,Budapest Remetekertváros                ,Budapest II.          ,EOR
34435,20181201,20241029,47.5514,18.9489,230,Budapest Remetekertváros                ,Budapest II.          ,EOR
34436,20190101,20241029,47.63,18.8975,198,Pilisvörösvár                           ,Pest                  ,EOR
34437,20231101,20241029,47.6239,18.7747,235,Tinnye                                  ,Pest                  ,EOR
34527,20160101,20190131,47.3692,18.0278,228,Súr                                     ,Komárom-Esztergom     ,EOR
34527,20180901,20241029,47.3692,18.0278,228,Súr                                     ,Komárom-Esztergom     ,EOR
34528,20190801,20241029,47.4958,18.0292,179,Kisbér                                  ,Komárom-Esztergom     ,EOR
34529,20210601,20241029,47.4228,18.2217,219,Pusztavám                               ,Fejér                 ,EOR
34617,20080701,20241029,47.3956,18.4781,139.1,Csákvár                                 ,Fejér                 ,EOR
34617,20180901,20190731,47.3956,18.4781,139.1,Csákvár                                 ,Fejér                 ,EOR
34703,20090401,20190131,47.4306,18.6008,143.2,Alcsútdoboz                             ,Fejér                 ,EOR
34703,20190201,20190731,47.4306,18.6008,143.2,Alcsútdoboz                             ,Fejér                 ,EOR
34703,20190801,20241029,47.4306,18.6008,143.2,Alcsútdoboz                             ,Fejér                 ,EOR
34704,19681101,20190131,47.4742,18.5228,186.3,Szár                                    ,Fejér                 ,EOR
34704,20180901,20241029,47.4742,18.5228,186.3,Szár                                    ,Fejér                 ,EOR
34713,20170201,20181231,47.4497,18.5875,149,Felcsút belterület                      ,Fejér                 ,EOR
34713,20180901,20241029,47.4497,18.5875,149,Felcsút belterület                      ,Fejér                 ,EOR
34813,19811101,20190131,47.3958,18.9122,120,Érd                                     ,Pest                  ,EOR
34813,20180901,20241029,47.3958,18.9122,120,Érd                                     ,Pest                  ,EOR
34815,20170301,20181231,47.4111,18.9492,140.6,Diósd                                   ,Pest                  ,EOR
34815,20180901,20190731,47.4111,18.9492,140.6,Diósd                                   ,Pest                  ,EOR
34815,20190801,20241029,47.4111,18.9492,140.6,Diósd                                   ,Pest                  ,EOR
35120,20150401,20241029,47.3244,18.1381,189,Balinka Mecsér                          ,Fejér                 ,EOR
35121,20150101,20181231,47.2678,18.1003,408,Isztimér Hétházpuszta                   ,Fejér                 ,EOR
35121,20180901,20190831,47.2678,18.1003,408,Isztimér Hétházpuszta                   ,Fejér                 ,EOR
35121,20190901,20241029,47.2678,18.1003,408,Isztimér Hétházpuszta                   ,Fejér                 ,EOR
35208,19800601,20190131,47.1914,18.4136,112,Székesfehérvár Belváros                 ,Fejér                 ,EOR
35208,20180901,20241029,47.1914,18.4136,112,Székesfehérvár Belváros                 ,Fejér                 ,EOR
35223,20170301,20181231,47.2425,18.3361,117,Moha                                    ,Fejér                 ,EOR
35223,20190101,20241029,47.2425,18.3361,117,Moha                                    ,Fejér                 ,EOR
35314,19530401,20241029,47.2414,18.6792,114,Kápolnásnyék                            ,Fejér                 ,EOR
35321,20161201,20191231,47.3081,18.5486,152.7,Lovasberény                             ,Fejér                 ,EOR
35321,20200101,20241029,47.3081,18.5486,152.7,Lovasberény                             ,Fejér                 ,EOR
35322,20200101,20241029,47.19,18.5836,104,Gárdony Agárd                           ,Fejér                 ,EOR
35407,19950101,20190630,47.2503,18.8933,123.7,Ercsi                                   ,Fejér                 ,EOR
35407,20180901,20241029,47.2503,18.8933,123.7,Ercsi                                   ,Fejér                 ,EOR
35419,20210601,20241029,47.2825,18.8244,111,Ráckeresztúr                            ,Fejér                 ,EOR
35505,19800701,19860831,46.9911,18.2464,112,Lepsény                                 ,Fejér                 ,EOR
35505,19861101,20241029,46.9911,18.2464,112,Lepsény                                 ,Fejér                 ,EOR
35522,20140401,20190131,47.1606,18.0731,160,Öskü                                    ,Veszprém              ,EOR
35522,20180901,20241029,47.1606,18.0731,160,Öskü                                    ,Veszprém              ,EOR
35709,20161201,20241029,47.1292,18.6722,119.4,Zichyújfalu                             ,Fejér                 ,EOR
35801,19990101,20241029,47.1233,18.8631,99,Adony Árpád utca                        ,Fejér                 ,EOR
36112,20161201,20181231,46.9031,18.0431,106.6,Siófok belváros                         ,Somogy                ,EOR
36112,20180901,20241029,46.9031,18.0431,106.6,Siófok belváros                         ,Somogy                ,EOR
36113,20180401,20181231,46.9108,18.0408,107.2,Siófok Obszervatórium                   ,Somogy                ,EOR
36113,20180901,20241029,46.9108,18.0408,107.2,Siófok Obszervatórium                   ,Somogy                ,EOR
36203,19850101,20241029,46.9178,18.3489,133,Mátyásdomb                              ,Fejér                 ,EOR
36208,20150101,20241029,46.9639,18.3942,140,Kisláng                                 ,Fejér                 ,EOR
36306,19860601,20241029,46.9578,18.4811,131,Sárbogárd Nagyhörcsökpuszta             ,Fejér                 ,EOR
36502,19610701,20241029,46.6733,17.9794,185,Zics                                    ,Somogy                ,EOR
36517,20150101,20181231,46.7336,18.0253,176,Tab                                     ,Somogy                ,EOR
36517,20180901,20241029,46.7336,18.0253,176,Tab                                     ,Somogy                ,EOR
36518,20161201,20181231,46.6922,18.1914,162,Iregszemcse Kastélypark                 ,Tolna                 ,EOR
36518,20180901,20241029,46.6922,18.1914,162,Iregszemcse Kastélypark                 ,Tolna                 ,EOR
36613,20090401,20210131,46.6831,18.4372,104.1,Pincehely                               ,Tolna                 ,EOR
36613,20210125,20241029,46.6831,18.4372,104.1,Pincehely                               ,Tolna                 ,EOR
36701,19520701,20190131,46.7519,18.5378,99,Simontornya                             ,Tolna                 ,EOR
36701,20180901,20210731,46.7519,18.5378,99,Simontornya                             ,Tolna                 ,EOR
36701,20210801,20221231,46.7519,18.5378,99,Simontornya                             ,Tolna                 ,EOR
36701,20230101,20241029,46.7519,18.5378,99,Simontornya                             ,Tolna                 ,EOR
36703,19480901,19991231,46.7683,18.6156,95,Sáregres Cece                           ,Fejér                 ,EOR
36703,20000401,20190131,46.7683,18.6156,95,Sáregres Cece                           ,Fejér                 ,EOR
36703,20180901,20241029,46.7683,18.6156,95,Sáregres Cece                           ,Fejér                 ,EOR
36809,20100301,20241029,46.6831,18.8044,139,Paks Gyapa                              ,Tolna                 ,EOR
36810,20110801,20241029,46.8083,18.9217,102,Dunaföldvár                             ,Tolna                 ,EOR
37107,20180101,20241029,46.5364,18.1056,197.5,Szakcs                                  ,Tolna                 ,EOR
37202,19940101,20190131,46.5208,18.3825,117,Szakály                                 ,Tolna                 ,EOR
37202,20180901,20241029,46.5208,18.3825,117,Szakály                                 ,Tolna                 ,EOR
37203,19960101,20181231,46.4981,18.4139,181,Hőgyész                                 ,Tolna                 ,EOR
37203,20180901,20241029,46.4981,18.4139,181,Hőgyész                                 ,Tolna                 ,EOR
37213,20140401,20181231,46.6358,18.2797,132.5,Tamási                                  ,Tolna                 ,EOR
37213,20180901,20241029,46.6358,18.2797,132.5,Tamási                                  ,Tolna                 ,EOR
37302,19830701,20241029,46.5303,18.7108,120,Tengelic                                ,Tolna                 ,EOR
37408,19700701,20241029,46.6414,19.0036,91,Dunapataj                               ,Bács-Kiskun           ,EOR
37413,20180401,20181231,46.5736,18.8456,96.2,Paks Meteorológia                       ,Tolna                 ,EOR
37413,20180901,20241029,46.5736,18.8456,96.2,Paks Meteorológia                       ,Tolna                 ,EOR
37414,20241001,20241029,46.5258,18.9547,91,Kalocsa                                 ,Bács-Kiskun           ,EOR
37508,19691001,20241029,46.3747,18.1358,133,Dombóvár                                ,Tolna                 ,EOR
37522,20060601,20190131,46.4286,18.0172,147,Gölle                                   ,Somogy                ,EOR
37522,20190101,20241029,46.4286,18.0172,147,Gölle                                   ,Somogy                ,EOR
37726,20231201,20241029,46.3392,18.6661,179,Szekszárd Csötönyi-völgy                ,Tolna                 ,EOR
38105,19790601,20241029,46.2525,18.1111,135,Sásd                                    ,Baranya               ,EOR
38110,19990901,20241029,46.2228,18.0556,181,Mindszentgodisa                         ,Baranya               ,EOR
38210,19970101,19980731,46.2603,18.3964,193.1,Máza                                    ,Baranya               ,EOR
38210,20130101,20181231,46.2603,18.3964,193.1,Máza                                    ,Baranya               ,EOR
38210,20180901,20241029,46.2603,18.3964,193.1,Máza                                    ,Baranya               ,EOR
38222,20220501,20241029,46.27,18.4325,155,Váralja                                 ,Tolna                 ,EOR
38307,19900701,20181231,46.285,18.6303,180,Szálka                                  ,Tolna                 ,EOR
38307,20180901,20241029,46.285,18.6303,180,Szálka                                  ,Tolna                 ,EOR
38318,20220201,20241029,46.1819,18.7178,88,Bátaszék                                ,Tolna                 ,EOR
38411,20110801,20181231,46.2039,18.8153,85.6,Pörböly                                 ,Tolna                 ,EOR
38411,20180901,20220131,46.2039,18.8153,85.6,Pörböly                                 ,Tolna                 ,EOR
38411,20241002,20241029,46.2039,18.8153,85.6,Pörböly                                 ,Tolna                 ,EOR
38412,20220201,20241002,46.2072,18.8122,85,Pörböly                                 ,Tolna                 ,EOR
38413,20220621,20241029,46.1903,18.9497,93,Baja Józsefváros                        ,Bács-Kiskun           ,EOR
38501,19491201,19580930,46.0572,18.0947,143,Szentlőrinc Tortyogó                    ,Baranya               ,EOR
38501,19600625,20241029,46.0572,18.0947,143,Szentlőrinc Tortyogó                    ,Baranya               ,EOR
38505,19771001,20241029,46.0517,18.2228,124,Pécs Kertváros                          ,Baranya               ,EOR
38525,20070101,20201231,46.0853,18.0828,233.2,Bakonya                                 ,Baranya               ,EOR
38525,20201212,20241029,46.0853,18.0828,233.2,Bakonya                                 ,Baranya               ,EOR
38536,20211001,20241029,46.0778,18.2072,174,Pécs Egyetem                            ,Baranya               ,EOR
38615,20230401,20241029,46.0411,18.2878,178,Kozármisleny                            ,Baranya               ,EOR
38708,20080201,20241029,46.1325,18.6364,169,Palotabozsok                            ,Baranya               ,EOR
38804,20020501,20241029,46.1447,18.88,85,Szeremle                                ,Bács-Kiskun           ,EOR
38805,20230101,20241029,46.0042,18.8919,85,Dávod                                   ,Bács-Kiskun           ,EOR
39110,20060101,20181231,45.8953,18.0094,96,Páprád                                  ,Baranya               ,EOR
39110,20180901,20241029,45.8953,18.0094,96,Páprád                                  ,Baranya               ,EOR
39117,19940101,20241029,45.9525,18.2497,158,Szalánta Németi                         ,Baranya               ,EOR
39308,20080101,20181231,45.9497,18.7083,85,Kölked                                  ,Baranya               ,EOR
39308,20180901,20241029,45.9497,18.7083,85,Kölked                                  ,Baranya               ,EOR
39410,20230601,20241029,45.9444,18.9375,87,Hercegszántó                            ,Bács-Kiskun           ,EOR
39600,19870701,20241029,45.7922,18.3056,89,Alsószentmárton                         ,Baranya               ,EOR
39602,19620401,20241029,45.7869,18.4331,87,Beremend                                ,Baranya               ,EOR
42303,19870701,20190131,48.1814,19.5233,166,Nógrádszakál                            ,Nógrád                ,EOR
42303,20180901,20241029,48.1814,19.5233,166,Nógrádszakál                            ,Nógrád                ,EOR
42304,19940101,20191130,48.1625,19.7044,198,Karancskeszi                            ,Nógrád                ,EOR
42304,20191101,20241029,48.1625,19.7044,198,Karancskeszi                            ,Nógrád                ,EOR
42605,20230701,20241029,48.0422,19.4803,209,Varsány                                 ,Nógrád                ,EOR
42707,19800701,20170331,48.1253,19.7625,241,Karancsalja                             ,Nógrád                ,EOR
42707,20170701,20241029,48.1253,19.7625,241,Karancsalja                             ,Nógrád                ,EOR
42718,20210101,20241029,48.0361,19.57,233,Nagylóc                                 ,Nógrád                ,EOR
42815,19600601,20241029,48.01,19.8958,210,Nemti                                   ,Nógrád                ,EOR
42825,20190901,20241029,48.1281,19.8828,526,Salgótarján Rónafalu                    ,Nógrád                ,EOR
43126,20040201,20181231,47.9497,19.0222,352,Diósjenő                                ,Nógrád                ,EOR
43126,20181101,20241029,47.9497,19.0222,352,Diósjenő                                ,Nógrád                ,EOR
43128,20071101,20241029,47.8981,19.0492,227,Nógrád                                  ,Nógrád                ,EOR
43130,20170801,20181231,47.9322,19.1061,198,Tolmács                                 ,Nógrád                ,EOR
43130,20190101,20241029,47.9322,19.1061,198,Tolmács                                 ,Nógrád                ,EOR
43226,20030401,20241029,47.8469,19.3856,180,Galgaguta                               ,Nógrád                ,EOR
43228,20180101,20181231,47.9314,19.2603,157,Romhány                                 ,Nógrád                ,EOR
43228,20180901,20241029,47.9314,19.2603,157,Romhány                                 ,Nógrád                ,EOR
43303,19520301,20241029,47.8964,19.6053,160,Ecseg                                   ,Nógrád                ,EOR
43413,19490901,20241029,47.9658,19.8578,284,Bátonyterenye                           ,Nógrád                ,EOR
43427,19840701,20241029,47.9128,19.9811,338,Parádsasvár                             ,Heves                 ,EOR
43428,20090601,20231130,47.91,19.8758,776,Mátraszentimre                          ,Heves                 ,EOR
43428,20240901,20241029,47.91,19.8758,776,Mátraszentimre                          ,Heves                 ,EOR
43429,20120101,20241029,47.9339,19.9147,440,Szuha Mátraalmás                        ,Nógrád                ,EOR
43524,20131201,20210930,47.8242,19.0642,201,Verőce                                  ,Pest                  ,EOR
43524,20210901,20241029,47.8242,19.0642,201,Verőce                                  ,Pest                  ,EOR
43525,20140901,20181130,47.7875,19.2164,146,Rád                                     ,Pest                  ,EOR
43525,20190201,20240731,47.7875,19.2164,146,Rád                                     ,Pest                  ,EOR
43526,20230901,20241029,47.6872,19.1389,114,Göd                                     ,Pest                  ,EOR
43616,19990401,20241029,47.6506,19.2903,171,Veresegyház                             ,Pest                  ,EOR
43806,19830701,20241029,47.7289,19.7761,166,Ecséd                                   ,Heves                 ,EOR
43811,20031001,20241029,47.725,19.8889,114,Atkár                                   ,Heves                 ,EOR
44128,19560601,20241029,47.5419,19.0656,107,Budapest Vizafogó                       ,Budapest XIII.        ,EOR
44169,20171101,20240131,47.6006,19.0172,197,Üröm                                    ,Pest                  ,EOR
44171,20190101,20241029,47.5672,19.1017,110,Budapest Újpest kertváros               ,Budapest IV.          ,EOR
44216,19970601,20191031,47.53,19.4022,182,Isaszeg Falumúzeum                      ,Pest                  ,EOR
44216,20191101,20241029,47.53,19.4022,182,Isaszeg Falumúzeum                      ,Pest                  ,EOR
44221,20150801,20181231,47.5467,19.2692,197,Kistarcsa                               ,Pest                  ,EOR
44221,20190101,20241029,47.5467,19.2692,197,Kistarcsa                               ,Pest                  ,EOR
44222,20170301,20181231,47.6442,19.3153,251,Szada                                   ,Pest                  ,EOR
44222,20190101,20241029,47.6442,19.3153,251,Szada                                   ,Pest                  ,EOR
44509,19560601,20190531,47.4144,19.0514,99,Budapest Csepel                         ,Budapest XXI.         ,EOR
44509,20190501,20241029,47.4144,19.0514,99,Budapest Csepel                         ,Budapest XXI.         ,EOR
44516,19560601,20241029,47.4678,19.0753,105,Budapest Ferencváros                    ,Budapest IX.          ,EOR
44524,19560601,20241029,47.4833,19.1414,145,Budapest Kőbányai Vízmű                 ,Budapest X.           ,EOR
44551,20130101,20181231,47.3528,19.0989,98.2,Dunaharaszti                            ,Pest                  ,EOR
44551,20180901,20241029,47.3528,19.0989,98.2,Dunaharaszti                            ,Pest                  ,EOR
44552,20140301,20241029,47.4425,19.0122,122,Budapest Budafok Kereszt-hegy           ,Budapest XXII.        ,EOR
44553,19840501,20181231,47.4086,19.1983,123,Budapest Pestszentimre                  ,Budapest XVIII.       ,EOR
44553,20180901,20241029,47.4086,19.1983,123,Budapest Pestszentimre                  ,Budapest XVIII.       ,EOR
44554,20150401,20190131,47.4533,19.0517,104,Budapest Kelenföld                      ,Budapest XI.          ,EOR
44554,20181201,20241029,47.4533,19.0517,104,Budapest Kelenföld                      ,Budapest XI.          ,EOR
44559,20180401,20181231,47.4289,19.1825,138.1,Budapest Obszervatórium                 ,Budapest XVIII.       ,EOR
44559,20180901,20241029,47.4289,19.1825,138.1,Budapest Obszervatórium                 ,Budapest XVIII.       ,EOR
44560,20200101,20241029,47.3817,19.2281,112,Gyál Gyálliget                          ,Pest                  ,EOR
44563,20230601,20241029,47.4442,19.1308,112,Budapest Kispest                        ,Budapest XIX.         ,EOR
44564,20240401,20241029,47.42,19.1258,112,Budapest Soroksár-Újtelep               ,Budapest XXIII.       ,EOR
44605,19660801,20181231,47.4419,19.3389,163,Maglód                                  ,Pest                  ,EOR
44605,20180901,20241029,47.4419,19.3389,163,Maglód                                  ,Pest                  ,EOR
44615,19930701,20181231,47.4119,19.265,120,Vecsés                                  ,Pest                  ,EOR
44615,20180901,20241029,47.4119,19.265,120,Vecsés                                  ,Pest                  ,EOR
44626,20170101,20181231,47.3475,19.4381,134,Monor                                   ,Pest                  ,EOR
44626,20180901,20241029,47.3475,19.4381,134,Monor                                   ,Pest                  ,EOR
44627,20221201,20241029,47.4911,19.2886,141,Budapest Rákoscsaba                     ,Budapest XVII.        ,EOR
44704,20000401,20241029,47.4111,19.7481,112,Nagykáta                                ,Pest                  ,EOR
44709,20130101,20181231,47.4344,19.6733,123.6,Szentmártonkáta                         ,Pest                  ,EOR
44709,20180901,20241029,47.4344,19.6733,123.6,Szentmártonkáta                         ,Pest                  ,EOR
45107,20180901,20241029,47.29,19.0614,97,Dunavarsány                             ,Pest                  ,EOR
45107,20180901,20181231,47.29,19.0614,97,Dunavarsány                             ,Pest                  ,EOR
45305,19980701,20241029,47.2489,19.6153,122,Albertirsa                              ,Pest                  ,EOR
45400,20000401,20241029,47.1747,19.8197,102,Cegléd Gyümölcskutató                   ,Pest                  ,EOR
45408,20160901,20201031,47.1961,19.9947,90,Abony                                   ,Pest                  ,EOR
45408,20201015,20241029,47.1961,19.9947,90,Abony                                   ,Pest                  ,EOR
45604,20001101,20241029,47.0575,19.2756,94,Kunpeszér                               ,Bács-Kiskun           ,EOR
46317,20230501,20241029,46.9131,19.7461,111,Kecskemét Irányítótorony                ,Bács-Kiskun           ,EOR
46501,19751101,20241029,46.8031,19.0294,96,Solt Kissolt                            ,Bács-Kiskun           ,EOR
46600,20070101,20241029,46.8056,19.3625,98,Izsák                                   ,Bács-Kiskun           ,EOR
46715,20230901,20241029,46.7611,19.6083,111,Jakabszállás                            ,Bács-Kiskun           ,EOR
47302,20220301,20241029,46.5517,19.6694,107,Szank                                   ,Bács-Kiskun           ,EOR
47607,20170101,20181231,46.4253,19.4736,125,Kiskunhalas Tabán                       ,Bács-Kiskun           ,EOR
47607,20180901,20241029,46.4253,19.4736,125,Kiskunhalas Tabán                       ,Bács-Kiskun           ,EOR
47714,20231001,20241029,46.385,19.68,116,Zsana                                   ,Bács-Kiskun           ,EOR
47805,20170101,20181231,46.4042,19.77,107,Kiskunmajsa Kígyóspuszta                ,Bács-Kiskun           ,EOR
47805,20180901,20241029,46.4042,19.77,107,Kiskunmajsa Kígyóspuszta                ,Bács-Kiskun           ,EOR
47810,20210801,20241029,46.4672,19.9789,88,Kistelek                                ,Csongrád-Csanád       ,EOR
48105,20060601,20190831,46.2008,19.1853,132,Felsőszentiván                          ,Bács-Kiskun           ,EOR
48105,20180901,20241029,46.2008,19.1853,132,Felsőszentiván                          ,Bács-Kiskun           ,EOR
48303,20060401,20241029,46.1897,19.5683,132,Tompa                                   ,Bács-Kiskun           ,EOR
48305,19850401,20190131,46.2886,19.7403,114,Ruzsa                                   ,Csongrád-Csanád       ,EOR
48305,20180901,20240930,46.2886,19.7403,114,Ruzsa                                   ,Csongrád-Csanád       ,EOR
48306,20241001,20241029,46.2844,19.7425,114,Ruzsa                                   ,Csongrád-Csanád       ,EOR
48407,20050101,20241029,46.325,19.9131,88,Bordány                                 ,Csongrád-Csanád       ,EOR
48409,20210201,20241029,46.2042,19.7767,115,Ásotthalom                              ,Csongrád-Csanád       ,EOR
48502,19831001,20241029,46.1203,19.1561,113,Bácsbokod                               ,Bács-Kiskun           ,EOR
48611,20211201,20241029,46.1289,19.3258,121,Bácsalmás                               ,Bács-Kiskun           ,EOR
51303,19820801,20030731,48.4975,20.6611,165,Szin                                    ,Borsod-Abaúj-Zemplén  ,EOR
51303,20030901,20190131,48.4975,20.6611,165,Szin                                    ,Borsod-Abaúj-Zemplén  ,EOR
51303,20181101,20241029,48.4975,20.6611,165,Szin                                    ,Borsod-Abaúj-Zemplén  ,EOR
51307,19850601,20190131,48.5408,20.7333,166,Bódvaszilas                             ,Borsod-Abaúj-Zemplén  ,EOR
51307,20180901,20241029,48.5408,20.7333,166,Bódvaszilas                             ,Borsod-Abaúj-Zemplén  ,EOR
51714,20211201,20241029,48.3442,20.7408,138,Szendrőlád                              ,Borsod-Abaúj-Zemplén  ,EOR
51715,20240101,20241029,48.4436,20.6311,206,Szőlősardó                              ,Borsod-Abaúj-Zemplén  ,EOR
52100,20070501,20241029,48.1819,20.1058,220,Domaháza                                ,Borsod-Abaúj-Zemplén  ,EOR
52212,20110901,20181231,48.2906,20.4369,153,Putnok                                  ,Borsod-Abaúj-Zemplén  ,EOR
52212,20180901,20241029,48.2906,20.4369,153,Putnok                                  ,Borsod-Abaúj-Zemplén  ,EOR
52214,20180101,20181231,48.1808,20.4864,209.4,Dédestapolcsány                         ,Borsod-Abaúj-Zemplén  ,EOR
52214,20180901,20241029,48.1808,20.4864,209.4,Dédestapolcsány                         ,Borsod-Abaúj-Zemplén  ,EOR
52310,20031001,20241029,48.2194,20.7161,127,Sajószentpéter                          ,Borsod-Abaúj-Zemplén  ,EOR
52401,19901201,20220831,48.1964,20.9272,116,Szikszó                                 ,Borsod-Abaúj-Zemplén  ,EOR
52401,20220901,20241029,48.1964,20.9272,116,Szikszó                                 ,Borsod-Abaúj-Zemplén  ,EOR
52503,19740101,20241029,48.02,20.0944,176,Pétervására                             ,Heves                 ,EOR
52503,20190101,20190731,48.02,20.0944,176,Pétervására                             ,Heves                 ,EOR
52517,19990701,20241029,48.1161,20.2564,238,Borsodnádasd                            ,Borsod-Abaúj-Zemplén  ,EOR
52603,19510101,20241029,48.0572,20.3542,318,Bélapátfalva                            ,Heves                 ,EOR
52705,19690901,19900430,48.0961,20.5261,696,Miskolc Lillafüred-Jávorkút             ,Borsod-Abaúj-Zemplén  ,EOR
52705,19910101,20211031,48.0961,20.5261,696,Miskolc Lillafüred-Jávorkút             ,Borsod-Abaúj-Zemplén  ,EOR
52705,20211101,20241029,48.0961,20.5261,696,Miskolc Lillafüred-Jávorkút             ,Borsod-Abaúj-Zemplén  ,EOR
52742,20070901,20190731,47.9647,20.4953,293,Bükkzsérc                               ,Borsod-Abaúj-Zemplén  ,EOR
52742,20190801,20241029,47.9647,20.4953,293,Bükkzsérc                               ,Borsod-Abaúj-Zemplén  ,EOR
52743,20110701,20190731,48.1036,20.6756,197,Miskolc Berekalja                       ,Borsod-Abaúj-Zemplén  ,EOR
52743,20190801,20241029,48.1036,20.6756,197,Miskolc Berekalja                       ,Borsod-Abaúj-Zemplén  ,EOR
52745,20180401,20190131,48.0944,20.7267,161,Miskolc Tűzoltóság                      ,Borsod-Abaúj-Zemplén  ,EOR
52745,20180901,20241029,48.0944,20.7267,161,Miskolc Tűzoltóság                      ,Borsod-Abaúj-Zemplén  ,EOR
52746,20181001,20190731,48.0661,20.6256,615,Bükkszentkereszt                        ,Borsod-Abaúj-Zemplén  ,EOR
52746,20190801,20241029,48.0661,20.6256,615,Bükkszentkereszt                        ,Borsod-Abaúj-Zemplén  ,EOR
52748,20220701,20241029,48.1611,20.6133,207,Varbó                                   ,Borsod-Abaúj-Zemplén  ,EOR
52825,20201101,20241029,48.1281,20.8564,115,Arnót                                   ,Borsod-Abaúj-Zemplén  ,EOR
53108,19750101,20041231,47.8469,20.1383,162,Kisnána                                 ,Heves                 ,EOR
53108,20050201,20241029,47.8469,20.1383,162,Kisnána                                 ,Heves                 ,EOR
53123,20080701,20181031,47.9072,20.0239,329,Parád Óhuta                             ,Heves                 ,EOR
53123,20181101,20190731,47.9072,20.0239,329,Parád Óhuta                             ,Heves                 ,EOR
53123,20190801,20240930,47.9072,20.0239,329,Parád Óhuta                             ,Heves                 ,EOR
53123,20241001,20241029,47.9072,20.0239,329,Parád Óhuta                             ,Heves                 ,EOR
53126,19950101,20181231,47.9736,20.1517,177,Terpes                                  ,Heves                 ,EOR
53126,20180901,20241029,47.9736,20.1517,177,Terpes                                  ,Heves                 ,EOR
53127,20170101,20181231,47.9242,20.0225,248,Parád                                   ,Heves                 ,EOR
53127,20180901,20241029,47.9242,20.0225,248,Parád                                   ,Heves                 ,EOR
53128,20180401,20181231,47.8722,20.0119,1010.5,Kékestető Meteorológia                  ,Heves                 ,EOR
53128,20180901,20241029,47.8722,20.0119,1010.5,Kékestető Meteorológia                  ,Heves                 ,EOR
53129,20190101,20241029,47.93,20.1056,192,Recsk                                   ,Heves                 ,EOR
53131,20220101,20241029,47.9386,20.0231,245,Bodony                                  ,Heves                 ,EOR
53132,20220201,20241029,47.9817,20.0222,217,Mátraballa                              ,Heves                 ,EOR
53209,19970401,20241029,47.97,20.41,210,Felsőtárkány                            ,Heves                 ,EOR
53219,20180401,20181231,47.9039,20.3881,224.5,Eger Főiskola                           ,Heves                 ,EOR
53219,20180901,20241029,47.9039,20.3881,224.5,Eger Főiskola                           ,Heves                 ,EOR
53221,20230101,20230131,47.9925,20.2617,237,Bátor                                   ,Heves                 ,EOR
53221,20230201,20241029,47.9925,20.2617,237,Bátor                                   ,Heves                 ,EOR
53300,19860101,20241029,47.9022,20.5347,172,Bogács                                  ,Borsod-Abaúj-Zemplén  ,EOR
53303,19980401,20241029,47.9369,20.5319,205,Cserépfalu                              ,Borsod-Abaúj-Zemplén  ,EOR
53311,19480301,20241029,47.8889,20.6825,130,Bükkábrány                              ,Borsod-Abaúj-Zemplén  ,EOR
53311,20180901,20190731,47.8889,20.6825,130,Bükkábrány                              ,Borsod-Abaúj-Zemplén  ,EOR
53408,20231201,20241029,47.9303,20.8103,114,Emőd                                    ,Borsod-Abaúj-Zemplén  ,EOR
53519,19991201,20241029,47.7289,20.0975,114,Ludas                                   ,Heves                 ,EOR
53520,20000401,20241029,47.7469,20.2406,116,Kompolt Széchenyi utca                  ,Heves                 ,EOR
53602,19940101,20021231,47.6858,20.315,112,Erdőtelek belterület                    ,Heves                 ,EOR
53602,20031001,20241029,47.6858,20.315,112,Erdőtelek belterület                    ,Heves                 ,EOR
53604,19910101,20241029,47.7533,20.4147,114,Füzesabony                              ,Heves                 ,EOR
53613,20030401,20051031,47.7911,20.3411,145,Kerecsend                               ,Heves                 ,EOR
53613,20060201,20241029,47.7911,20.3411,145,Kerecsend                               ,Heves                 ,EOR
53613,20200101,20200101,47.7911,20.3411,145,Kerecsend                               ,Heves                 ,EOR
53712,20170401,20181231,47.7156,20.5456,97,Egerfarmos                              ,Heves                 ,EOR
53712,20190101,20241029,47.7156,20.5456,97,Egerfarmos                              ,Heves                 ,EOR
53801,19830601,20241029,47.6889,20.8697,91,Tiszadorogma                            ,Borsod-Abaúj-Zemplén  ,EOR
53802,19760101,20241029,47.8144,20.9025,93,Mezőcsát                                ,Borsod-Abaúj-Zemplén  ,EOR
54216,20160401,20190831,47.6042,20.4394,91,Kömlő                                   ,Heves                 ,EOR
54216,20181101,20241029,47.6042,20.4394,91,Kömlő                                   ,Heves                 ,EOR
54310,20200101,20241029,47.6267,20.5956,89,Újlőrincfalva                           ,Heves                 ,EOR
54404,19911001,20241029,47.5319,20.8008,89,Tiszaigar                               ,Jász-Nagykun-Szolnok  ,EOR
54506,20170501,20181231,47.3583,20.1681,90,Jászladány                              ,Jász-Nagykun-Szolnok  ,EOR
54506,20180901,20241029,47.3583,20.1681,90,Jászladány                              ,Jász-Nagykun-Szolnok  ,EOR
54717,20221201,20241029,47.3619,20.6244,88,Kunhegyes                               ,Jász-Nagykun-Szolnok  ,EOR
54815,20020401,20241029,47.4853,20.9225,87,Nagyiván                                ,Jász-Nagykun-Szolnok  ,EOR
54818,20100101,20210930,47.4269,20.7911,89,Kunmadaras                              ,Jász-Nagykun-Szolnok  ,EOR
54818,20211001,20241029,47.4269,20.7911,89,Kunmadaras                              ,Jász-Nagykun-Szolnok  ,EOR
55307,20140101,20181231,47.2506,20.6725,83,Kenderes                                ,Jász-Nagykun-Szolnok  ,EOR
55307,20180901,20241029,47.2506,20.6725,83,Kenderes                                ,Jász-Nagykun-Szolnok  ,EOR
55509,20230101,20230630,47.1272,20.2317,88,Szolnok Irányítótorony                  ,Jász-Nagykun-Szolnok  ,EOR
55509,20230701,20241029,47.1272,20.2317,88,Szolnok Irányítótorony                  ,Jász-Nagykun-Szolnok  ,EOR
55603,19741001,20190228,47.0769,20.4819,81,Kétpó Árpád utca                        ,Jász-Nagykun-Szolnok  ,EOR
55603,20190301,20241029,47.0769,20.4819,81,Kétpó Árpád utca                        ,Jász-Nagykun-Szolnok  ,EOR
55607,20130101,20181231,47.0175,20.2958,84.8,Martfű                                  ,Jász-Nagykun-Szolnok  ,EOR
55607,20180901,20241029,47.0175,20.2958,84.8,Martfű                                  ,Jász-Nagykun-Szolnok  ,EOR
55805,19990601,20241029,47.0297,20.9519,84,Dévaványa Asztalos utca                 ,Békés                 ,EOR
56114,19800501,19950831,46.9564,20.2069,83,Cibakháza                               ,Jász-Nagykun-Szolnok  ,EOR
56114,19951101,20241029,46.9564,20.2069,83,Cibakháza                               ,Jász-Nagykun-Szolnok  ,EOR
56206,19521001,20241029,46.8939,20.4983,82,Békésszentandrás Duzzasztómű            ,Békés                 ,EOR
56206,20240301,20240301,46.8939,20.4983,82,Békésszentandrás Duzzasztómű            ,Békés                 ,EOR
56212,20140701,20241029,46.9986,20.3858,82,Mezőhék                                 ,Jász-Nagykun-Szolnok  ,EOR
56303,19011001,20241029,46.9383,20.635,84,Mezőtúr Kisőrvetői őrház                ,Jász-Nagykun-Szolnok  ,EOR
56306,19890101,20231231,46.8289,20.525,81,Szarvas Bikazug                         ,Békés                 ,EOR
56306,20240101,20241029,46.8289,20.525,81,Szarvas Bikazug                         ,Békés                 ,EOR
56309,20011001,20181231,46.8261,20.6422,81,Csabacsűd                               ,Békés                 ,EOR
56309,20180901,20241029,46.8261,20.6422,81,Csabacsűd                               ,Békés                 ,EOR
56400,19550101,20241029,46.9275,20.7722,82,Gyomaendrőd                             ,Békés                 ,EOR
56409,20200201,20241029,46.8519,20.9264,82,Csárdaszállás Felsőföld                 ,Békés                 ,EOR
56502,19920101,20241029,46.6931,20.2039,79,Szentes Felsőrét                        ,Csongrád-Csanád       ,EOR
56505,19060613,19310531,46.7561,20.2161,81,Szentes Zalota                          ,Csongrád-Csanád       ,EOR
56505,19310701,19341231,46.7561,20.2161,81,Szentes Zalota                          ,Csongrád-Csanád       ,EOR
56505,19350301,19370930,46.7561,20.2161,81,Szentes Zalota                          ,Csongrád-Csanád       ,EOR
56505,19371101,20241029,46.7561,20.2161,81,Szentes Zalota                          ,Csongrád-Csanád       ,EOR
56602,19370701,20241029,46.6522,20.3814,82,Szentes Dónát                           ,Csongrád-Csanád       ,EOR
56607,20240101,20241029,46.6669,20.4639,85,Fábiánsebestyén                         ,Csongrád-Csanád       ,EOR
56704,20060101,20241029,46.6722,20.5925,83,Gádoros                                 ,Békés                 ,EOR
56805,20000101,20241029,46.7533,20.79,86,Kondoros                                ,Békés                 ,EOR
57114,20210101,20241029,46.5208,20.18,78,Mindszent                               ,Csongrád-Csanád       ,EOR
57115,20230101,20241029,46.6136,20.0461,80,Tömörkény                               ,Csongrád-Csanád       ,EOR
57203,20061001,20231130,46.5786,20.3547,78,Derekegyház                             ,Csongrád-Csanád       ,EOR
57203,20231201,20241029,46.5786,20.3547,78,Derekegyház                             ,Csongrád-Csanád       ,EOR
57403,20060201,20210228,46.5933,20.8553,90,Gerendás                                ,Békés                 ,EOR
57403,20210301,20241029,46.5933,20.8553,90,Gerendás                                ,Békés                 ,EOR
57505,20170101,20181231,46.3394,20.0339,84,Szatymaz                                ,Csongrád-Csanád       ,EOR
57505,20180901,20241029,46.3394,20.0339,84,Szatymaz                                ,Csongrád-Csanád       ,EOR
57613,20231101,20241029,46.4347,20.3278,79,Hódmezővásárhely                        ,Csongrád-Csanád       ,EOR
57705,20120101,20241029,46.5114,20.5389,85,Székkutas                               ,Csongrád-Csanád       ,EOR
58114,20141101,20181231,46.2425,20.1756,83,Szeged Újszeged                         ,Csongrád-Csanád       ,EOR
58114,20180901,20241029,46.2425,20.1756,83,Szeged Újszeged                         ,Csongrád-Csanád       ,EOR
58115,20180401,20181231,46.2561,20.0903,80.8,Szeged Obszervatórium                   ,Csongrád-Csanád       ,EOR
58115,20180901,20241029,46.2561,20.0903,80.8,Szeged Obszervatórium                   ,Csongrád-Csanád       ,EOR
58118,20240201,20241029,46.3311,20.2153,78,Algyő                                   ,Csongrád-Csanád       ,EOR
58215,19951001,20200831,46.3181,20.4953,82,Földeák                                 ,Csongrád-Csanád       ,EOR
58215,20200901,20241029,46.3181,20.4953,82,Földeák                                 ,Csongrád-Csanád       ,EOR
58306,20060101,20210831,46.2467,20.7247,90,Csanádpalota                            ,Csongrád-Csanád       ,EOR
58306,20210901,20220228,46.2467,20.7247,90,Csanádpalota                            ,Csongrád-Csanád       ,EOR
58306,20220301,20241029,46.2467,20.7247,90,Csanádpalota                            ,Csongrád-Csanád       ,EOR
58600,19890101,20190131,46.1497,20.2753,78,Kübekháza                               ,Csongrád-Csanád       ,EOR
58600,20180901,20241029,46.1497,20.2753,78,Kübekháza                               ,Csongrád-Csanád       ,EOR
58700,19990101,20241029,46.16,20.6667,90,Magyarcsanád Bökény                     ,Csongrád-Csanád       ,EOR
61100,19880401,20241029,48.5131,21.0142,239,Kány                                    ,Borsod-Abaúj-Zemplén  ,EOR
61201,19690601,20241029,48.5136,21.4567,223,Füzérkomlós                             ,Borsod-Abaúj-Zemplén  ,EOR
61618,20020801,20241029,48.4914,21.3481,237,Telkibánya                              ,Borsod-Abaúj-Zemplén  ,EOR
61702,19680501,20181231,48.4953,21.5547,208,Vilyvitány                              ,Borsod-Abaúj-Zemplén  ,EOR
61702,20180901,20241029,48.4953,21.5547,208,Vilyvitány                              ,Borsod-Abaúj-Zemplén  ,EOR
61703,19470201,20241029,48.4031,21.6578,104,Sátoraljaújhely Barátszer               ,Borsod-Abaúj-Zemplén  ,EOR
61711,20210101,20241029,48.3569,21.6944,96,Felsőberecki                            ,Borsod-Abaúj-Zemplén  ,EOR
62104,19041201,19081231,48.3169,21.1619,177,Gibárt                                  ,Borsod-Abaúj-Zemplén  ,EOR
62104,19090901,20181231,48.3169,21.1619,177,Gibárt                                  ,Borsod-Abaúj-Zemplén  ,EOR
62104,20180901,20241029,48.3169,21.1619,177,Gibárt                                  ,Borsod-Abaúj-Zemplén  ,EOR
62108,19981001,20241029,48.2086,21.1542,192,Monok                                   ,Borsod-Abaúj-Zemplén  ,EOR
62121,20170301,20181231,48.2619,21.0819,133,Felsődobsza                             ,Borsod-Abaúj-Zemplén  ,EOR
62121,20180901,20241029,48.2619,21.0819,133,Felsődobsza                             ,Borsod-Abaúj-Zemplén  ,EOR
62206,20140101,20181231,48.2814,21.4475,118,Tolcsva                                 ,Borsod-Abaúj-Zemplén  ,EOR
62206,20181101,20241029,48.2814,21.4475,118,Tolcsva                                 ,Borsod-Abaúj-Zemplén  ,EOR
62300,18970401,19440930,48.2425,21.515,98,Viss                                    ,Borsod-Abaúj-Zemplén  ,EOR
62300,19450501,20190131,48.2425,21.515,98,Viss                                    ,Borsod-Abaúj-Zemplén  ,EOR
62300,20180901,20241029,48.2425,21.515,98,Viss                                    ,Borsod-Abaúj-Zemplén  ,EOR
62306,20000401,20241029,48.3144,21.5567,110,Sárospatak Hunyadi utca                 ,Borsod-Abaúj-Zemplén  ,EOR
62309,19000801,19060930,48.1639,21.6664,96,Tiszabercel                             ,Szabolcs-Szatmár-Bereg,EOR
62309,19061101,19061130,48.1639,21.6664,96,Tiszabercel                             ,Szabolcs-Szatmár-Bereg,EOR
62309,19070101,19190531,48.1639,21.6664,96,Tiszabercel                             ,Szabolcs-Szatmár-Bereg,EOR
62309,19190901,19441031,48.1639,21.6664,96,Tiszabercel                             ,Szabolcs-Szatmár-Bereg,EOR
62309,19441201,20241029,48.1639,21.6664,96,Tiszabercel                             ,Szabolcs-Szatmár-Bereg,EOR
62317,20150201,20241029,48.2033,21.5306,98,Kenézlő                                 ,Borsod-Abaúj-Zemplén  ,EOR
62400,19291001,19440930,48.3078,21.7942,95,Karcsa                                  ,Borsod-Abaúj-Zemplén  ,EOR
62400,19450401,20241029,48.3078,21.7942,95,Karcsa                                  ,Borsod-Abaúj-Zemplén  ,EOR
62401,19440101,20241029,48.2397,21.9333,100,Dombrád                                 ,Szabolcs-Szatmár-Bereg,EOR
62404,19960101,20181231,48.2486,21.8894,98,Cigánd                                  ,Borsod-Abaúj-Zemplén  ,EOR
62404,20190101,20241029,48.2486,21.8894,98,Cigánd                                  ,Borsod-Abaúj-Zemplén  ,EOR
62413,20170201,20190131,48.1819,21.9914,109,Pátroha                                 ,Szabolcs-Szatmár-Bereg,EOR
62413,20190101,20241029,48.1819,21.9914,109,Pátroha                                 ,Szabolcs-Szatmár-Bereg,EOR
62505,20081201,20120630,48.0142,21.1706,95,Tiszadob                                ,Szabolcs-Szatmár-Bereg,EOR
62505,20130601,20241029,48.0142,21.1706,95,Tiszadob                                ,Szabolcs-Szatmár-Bereg,EOR
62507,20161001,20241029,48.0908,21.1311,96,Taktaharkány                            ,Borsod-Abaúj-Zemplén  ,EOR
62602,19450501,20241029,48.1422,21.3344,95,Tarcal Terézia kert                     ,Borsod-Abaúj-Zemplén  ,EOR
62617,20190801,20241029,48.0206,21.3719,95.8,Tiszalök                                ,Szabolcs-Szatmár-Bereg,EOR
62706,20131201,20181231,48.0217,21.6464,91,Nyírtelek                               ,Szabolcs-Szatmár-Bereg,EOR
62706,20180901,20241029,48.0217,21.6464,91,Nyírtelek                               ,Szabolcs-Szatmár-Bereg,EOR
62800,19810801,20241029,48.0692,21.7997,100,Kemecse                                 ,Szabolcs-Szatmár-Bereg,EOR
63200,19450801,20241029,47.8431,21.3928,93,Hajdúnánás                              ,Hajdú-Bihar           ,EOR
63401,19710501,20191231,47.9558,21.9364,117,Apagy                                   ,Szabolcs-Szatmár-Bereg,EOR
63401,20200101,20241029,47.9558,21.9364,117,Apagy                                   ,Szabolcs-Szatmár-Bereg,EOR
63407,19990701,20241029,47.9725,21.7111,110,Nyíregyháza Egyetem                     ,Szabolcs-Szatmár-Bereg,EOR
63511,20200101,20240531,47.7283,21.1019,91,Újszentmargita                          ,Hajdú-Bihar           ,EOR
63512,20240601,20241029,47.7467,21.1203,91,Újszentmargita Bödönhát                 ,Hajdú-Bihar           ,EOR
63605,20000401,20241029,47.8125,21.4994,107,Hajdúdorog                              ,Hajdú-Bihar           ,EOR
63713,20190801,20241029,47.6828,21.6586,146,Hajdúhadház                             ,Hajdú-Bihar           ,EOR
64308,20170101,20241029,47.5989,21.75,133,Hajdúsámson                             ,Hajdú-Bihar           ,EOR
64309,20190301,20241029,47.5125,21.6308,113,Debrecen Kerekestelep                   ,Hajdú-Bihar           ,EOR
64311,20221101,20241029,47.59,21.5803,126,Debrecen Józsa                          ,Hajdú-Bihar           ,EOR
64403,20100201,20241029,47.5294,21.9908,133,Nyírábrány                              ,Hajdú-Bihar           ,EOR
64709,20080101,20241029,47.3578,21.5747,95,Derecske                                ,Hajdú-Bihar           ,EOR
65101,19770101,20241029,47.2267,21.1453,88,Szerep Nagy utca                        ,Hajdú-Bihar           ,EOR
65107,19860701,20241029,47.2114,21.2325,90,Biharnagybajom                          ,Hajdú-Bihar           ,EOR
65200,19740101,20241029,47.2522,21.3503,87,Sáp                                     ,Hajdú-Bihar           ,EOR
65201,19380101,20241029,47.1883,21.4561,96,Bakonszeg Kálló-Bakonszeg               ,Hajdú-Bihar           ,EOR
65300,19980101,20181231,47.1653,21.6181,95,Mezőpeterd                              ,Hajdú-Bihar           ,EOR
65300,20180901,20241029,47.1653,21.6181,95,Mezőpeterd                              ,Hajdú-Bihar           ,EOR
65400,19750101,20241029,47.2864,21.8275,99,Pocsaj Rétalj utca                      ,Hajdú-Bihar           ,EOR
65513,20200201,20241029,47.1064,21.2186,88,Füzesgyarmat                            ,Békés                 ,EOR
65515,20210201,20241029,47.015,21.1797,88,Szeghalom                               ,Békés                 ,EOR
65600,19380101,19870531,47.1078,21.3189,86,Darvas                                  ,Hajdú-Bihar           ,EOR
65600,19890101,20030331,47.1078,21.3189,86,Darvas                                  ,Hajdú-Bihar           ,EOR
65600,20031001,20241029,47.1078,21.3189,86,Darvas                                  ,Hajdú-Bihar           ,EOR
65704,19990101,20241029,47.0183,21.5967,93,Körösszakál Rákóczi utca                ,Hajdú-Bihar           ,EOR
66209,20070601,20210930,46.9272,21.2617,86,Vésztő                                  ,Békés                 ,EOR
66209,20211001,20241029,46.9272,21.2617,86,Vésztő                                  ,Békés                 ,EOR
66212,20220401,20241029,46.9231,21.4917,90,Zsadány                                 ,Békés                 ,EOR
66523,20210101,20241029,46.6817,21.1044,87,Békéscsaba VI. kerület                  ,Békés                 ,EOR
66611,20100101,20190131,46.7719,21.4367,90,Méhkerék                                ,Békés                 ,EOR
66611,20180901,20241029,46.7719,21.4367,90,Méhkerék                                ,Békés                 ,EOR
67102,19480101,20241029,46.5028,21.0986,94,Medgyesegyháza Bánkút-Rózsamajor        ,Békés                 ,EOR
67114,20210101,20241029,46.5839,21.0319,89,Újkígyós                                ,Békés                 ,EOR
67203,19750501,20241029,46.635,21.3292,86,Gyulavári                               ,Békés                 ,EOR
67500,19700101,20241029,46.4258,21.2292,98,Lőkösháza Arany J. utca                 ,Békés                 ,EOR
68105,20210101,20241029,46.2925,21.0203,98,Battonya                                ,Békés                 ,EOR
72120,20090701,20181231,48.2728,22.1767,106,Tornyospálca                            ,Szabolcs-Szatmár-Bereg,EOR
72120,20180901,20241029,48.2728,22.1767,106,Tornyospálca                            ,Szabolcs-Szatmár-Bereg,EOR
72121,20230701,20241029,48.3264,22.0442,98,Révleányvár                             ,Borsod-Abaúj-Zemplén  ,EOR
72202,19960101,20241029,48.2103,22.2592,106,Aranyosapáti                            ,Szabolcs-Szatmár-Bereg,EOR
72203,19920101,20190930,48.1619,22.4589,109,Csaroda                                 ,Szabolcs-Szatmár-Bereg,EOR
72203,20191001,20241029,48.1619,22.4589,109,Csaroda                                 ,Szabolcs-Szatmár-Bereg,EOR
72510,20150401,20231130,48.0594,22.195,133,Nyírmada                                ,Szabolcs-Szatmár-Bereg,EOR
72510,20231201,20241029,48.0594,22.195,133,Nyírmada                                ,Szabolcs-Szatmár-Bereg,EOR
72511,20201001,20241029,48.0944,22.1103,117,Nyírkarász                              ,Szabolcs-Szatmár-Bereg,EOR
72603,19950201,20241029,47.9886,22.5211,111,Fehérgyarmat                            ,Szabolcs-Szatmár-Bereg,EOR
72616,20000601,20241029,48.1322,22.305,106,Vásárosnamény Árpád út                  ,Szabolcs-Szatmár-Bereg,EOR
72800,19490601,20241029,48.0328,22.7586,118,Sonkád                                  ,Szabolcs-Szatmár-Bereg,EOR
72802,19441001,19571231,48.105,22.8222,118,Tiszabecs                               ,Szabolcs-Szatmár-Bereg,EOR
72802,19650101,19721231,48.105,22.8222,118,Tiszabecs                               ,Szabolcs-Szatmár-Bereg,EOR
72802,19990601,20241029,48.105,22.8222,118,Tiszabecs                               ,Szabolcs-Szatmár-Bereg,EOR
73102,19710101,20190930,47.8344,22.1297,151,Nyírbátor                               ,Szabolcs-Szatmár-Bereg,EOR
73102,20191001,20191231,47.8344,22.1297,151,Nyírbátor                               ,Szabolcs-Szatmár-Bereg,EOR
73102,20200101,20241029,47.8344,22.1297,151,Nyírbátor                               ,Szabolcs-Szatmár-Bereg,EOR
73104,19970501,20241029,47.9269,22.0347,134,Ófehértó                                ,Szabolcs-Szatmár-Bereg,EOR
73205,19490101,20241029,47.8564,22.3967,111,Nagyecsed                               ,Szabolcs-Szatmár-Bereg,EOR
73213,20221001,20241029,47.9414,22.3953,111,Kocsord                                 ,Szabolcs-Szatmár-Bereg,EOR
73308,19980401,20241029,47.8469,22.5481,111,Tyukod                                  ,Szabolcs-Szatmár-Bereg,EOR
73316,20180401,20181231,47.9947,22.5594,110,Penyige                                 ,Szabolcs-Szatmár-Bereg,EOR
73316,20180901,20241029,47.9947,22.5594,110,Penyige                                 ,Szabolcs-Szatmár-Bereg,EOR
73317,20181001,20241029,47.8553,22.6892,117,Szamosbecs                              ,Szabolcs-Szatmár-Bereg,EOR
73400,19550801,20181231,47.9311,22.7536,120,Gacsály                                 ,Szabolcs-Szatmár-Bereg,EOR
73400,20181201,20241029,47.9311,22.7536,120,Gacsály                                 ,Szabolcs-Szatmár-Bereg,EOR
73506,20140801,20181231,47.8044,22.065,120,Nyírbogát                               ,Szabolcs-Szatmár-Bereg,EOR
73506,20180901,20241029,47.8044,22.065,120,Nyírbogát                               ,Szabolcs-Szatmár-Bereg,EOR
73604,20160201,20190430,47.7617,22.2697,130,Bátorliget                              ,Szabolcs-Szatmár-Bereg,EOR
73604,20190501,20200331,47.7617,22.2697,130,Bátorliget                              ,Szabolcs-Szatmár-Bereg,EOR
73604,20200401,20241029,47.7617,22.2697,130,Bátorliget                              ,Szabolcs-Szatmár-Bereg,EOR
